"","business_id","business_name","business_latitude","business_longitude"
"1",1641,"MARTHA & BROS. COFFEE CO",37.745974,-122.426856
"5",1249,"KABABAYAN FAST FOOD",37.753691,-122.418657
"6",13427,"Extreme Pizza",37.711185,-122.46779
"12",70494,"The Little Chihuahua Mexican Restaurant",37.763664,-122.421736
"15",1081,"ARINELL PIZZA",37.764744,-122.421803
"18",4683,"JAVA ON OCEAN",37.724778,-122.460205
"22",7744,"SAFEWAY #759",37.731523,-122.45005
"23",5961,"ST VINCENT DE PAUL",37.795882,-122.43789
"24",61285,"Cocola",37.728497,-122.475639
"27",61736,"Rosamunde Sausage Grill",37.751587,-122.418444
"32",71286,"21 Taste House",37.723461,-122.454226
"33",5297,"EL NORTENO",37.776011,-122.402466
"38",2973,"KOH SAMUI & THE MONKEY",37.779777,-122.394673
"39",4372,"CLUB PUERTORRIQUENO OF SF INC.",37.744901,-122.420273
"40",14303,"Mango Medley",37.760454,-122.503939
"41",70516,"Shabu House",37.731746,-122.473318
"44",5025,"PIZZA HUT",37.743313,-122.421363
"46",2632,"MARTHA & BROS COFFEE CO",37.738927,-122.414757
"55",4959,"THAT'S IT MARKET",37.753973,-122.418576
"57",4480,"STARBUCKS COFFEE #545",37.751413,-122.431629
"60",5032,"MITCHELLS ICE CREAM",37.744122,-122.422722
"62",7645,"LUCKY PORK MARKET",37.754513,-122.418626
"65",2352,"SMILE'S  B.B.Q.",37.755013,-122.418665
"69",5011,"STARBUCKS COFFEE CO",37.778357,-122.415182
"73",14971,"San Francisco Public Montessori",37.792628,-122.433514
"75",5997,"STONESTOWN FAMILY YMCA (SR. ANNEX)",37.730576,-122.47588
"77",4249,"Cafe Du Soleil",37.771368,-122.430248
"79",7095,"ABE'S MARKET",37.772822,-122.430498
"81",5907,"LILIENTHAL ELEMENTARY SCHOOL",37.803537,-122.443547
"86",7479,"RJ's Market",37.803634,-122.403285
"87",7214,"SUN FAT SEAFOOD",37.754094,-122.418586
"88",69465,"La Corneta",37.753336,-122.418494
"97",4978,"Angel's Market",37.748214,-122.433746
"100",5847,"John Muir Elementary School",37.774046,-122.429076
"102",18800,"7-Mission Restaurant",37.778547,-122.41013
"104",3868,"BARNEY'S",37.751268,-122.434992
"108",2356,"TAQUERIA EL FAROLITO",37.752634,-122.418486
"110",4797,"Good Life Grocery, The",37.739053,-122.416683
"116",31568,"Taqueria El Sol #2",37.786709,-122.413068
"117",63773,"Irish Times Bar and Grill",37.79407,-122.401269
"121",10332,"Harvest Urban Market",37.776384,-122.411684
"122",13814,"Go Go Market & Deli",37.774722,-122.406761
"127",7538,"FREDS LIQUOR & DELI",37.774722,-122.406761
"133",2455,"MUDDY WATERS",37.764484,-122.421815
"134",71909,"Shanghai Dumpling King 2",37.731568,-122.45097
"135",10030,"Marshall Elementary School",37.766864,-122.419014
"136",3260,"KENTUCKY FRIED CHICKEN",37.726337,-122.465031
"137",5868,"LONGFELLOW ELEMENTARY SCHOOL",37.710459,-122.447713
"140",5998,"CENTRO LATINO DE SAN FRANCISCO",37.766618,-122.421263
"142",5955,"SF CHRISTIAN DAY SCHOOL",37.709896,-122.448082
"143",4590,"TAQUERIA CAN-CUN  RESTAURANT",37.78215,-122.410305
"144",5808,"BALBOA HIGH SCHOOL",37.722067,-122.43983
"153",5827,"HILLCREST ELEMENTARY SCHOOL",37.729016,-122.419253
"161",5999,"The Salvation Army",37.754397,-122.420915
"162",5860,"June Jordan",37.719719,-122.425581
"163",5814,"FAIRMOUNT ELEMENTARY SCHOOL",37.740395,-122.425576
"165",5810,"DENMAN MIDDLE SCHOOL",37.721825,-122.442876
"168",7646,"VALENCIA GROCERY",37.752059,-122.420713
"169",5794,"LINCOLN HIGH SCHOOL",37.747228,-122.481299
"170",5854,"Gateway High/Kip Schools",37.783427,-122.437747
"171",5825,"GUADALUPE ELEMENTARY SCHOOL",37.710464,-122.434202
"172",67552,"Namu Gaji",37.761554,-122.425956
"176",5925,"ARCHBISHOP RIORDAN HIGH SCHOOL CAFE",37.727337,-122.45245
"177",5820,"GLEN PARK ELEMENTARY SCHOOL",37.73322,-122.435998
"179",5849,"NEW TRADITIONS ALTERNATIVE SCHOOL",37.774333,-122.450327
"180",5834,"Presidio Middle School",37.780823,-122.490105
"183",5853,"RAOUL WALLENBERG HIGH SCHOOL",37.780133,-122.445864
"185",69237,"SPRESSA",37.718254,-122.474427
"188",2369,"CLOONEY'S",37.750374,-122.420456
"189",5905,"MARINA MIDDLE SCHOOL",37.801776,-122.43641
"192",1734,"SAI JAI THAI",37.785182,-122.417409
"194",5908,"SHERMAN ELEMENTARY SCHOOL",37.798243,-122.426167
"197",6000,"Mission Neighborhood Centers",37.761007,-122.418215
"207",3948,"Mel's Drive-In",37.78355,-122.405356
"211",62814,"Hot Spud",37.807888,-122.414027
"213",1609,"Tung Sing Restaurant",37.751373,-122.432319
"216",2343,"GRAND MISSION DONUT & BAKERY",37.761929,-122.419308
"218",69181,"Cha-Ya Restaurant",37.760777,-122.421505
"220",3228,"THANH LONG RESTAURANT",37.760383,-122.50609
"222",5958,"ST. THOMAS THE APOSTLE",37.775573,-122.499709
"223",5823,"WEBSTER ELEMENTARY SCHOOL",37.760474,-122.396296
"224",4685,"NORMAN'S LIQUOR & DELI",37.714204,-122.469193
"225",5867,"MALCOLM X ELEMENTARY SCHOOL",37.733741,-122.380619
"227",63618,"Contraband Coffee LLC",37.790933,-122.41914
"229",71532,"Xpresso Tea",37.779663,-122.493618
"230",5010,"LATTE EXPRESS",37.783225,-122.407252
"234",63079,"G. L. Alfieri, LLC",37.795225,-122.39377
"239",4849,"FAMILY MARKET",37.713219,-122.458851
"240",1381,"PEBBLE'S CAFE",37.73382,-122.434093
"243",2692,"TYGER'S",37.734579,-122.4339
"247",6756,"Godiva Chocolatier Inc.",37.728497,-122.475639
"254",3834,"SAFEWAY #1507",37.768743,-122.427549
"256",5856,"Sanchez School",37.76395,-122.430767
"262",4636,"STARBUCKS COFFEE",37.728497,-122.475639
"263",5802,"LOWELL HIGH SCHOOL",37.731027,-122.483578
"264",5817,"LAKESHORE ELEMENTARY SCHOOL",37.730637,-122.4861
"265",7112,"NICK'S SUPER MARKET",37.774017,-122.423184
"270",68963,"West of Pecos",37.764087,-122.421881
"271",146,"DEJA VU PIZZA & PASTA",37.764713,-122.424709
"274",7207,"GOLDEN PRODUCE",37.768187,-122.429024
"280",5919,"SAN FRANCISCO DAY SCHOOL",37.777988,-122.446877
"281",63897,"Bob's Donuts and Pastries",37.791914,-122.420984
"282",63256,"Viva Goa Indian Cuisine",37.799188,-122.441423
"283",5888,"Bryant Elementary School",37.751776,-122.404626
"284",5842,"GRATTAN ELEMENTARY SCHOOL",37.763842,-122.450513
"287",5871,"CHAVEZ ELEMENTARY SCHOOL",37.754805,-122.415376
"288",7664,"NORM'S MARKET",37.759045,-122.409726
"291",5859,"BURTON HIGH SCHOOL",37.720656,-122.405108
"292",5824,"S.F. International High School",37.755257,-122.408455
"293",5897,"BRET HARTE CHILDREN'S CENTER",37.718375,-122.390006
"294",5874,"HARTE ELEMENTARY SCHOOL",37.718746,-122.389105
"295",5807,"SHERIDAN ELEMENTARY SCHOOL",37.714304,-122.459115
"296",5858,"DREW ELEMENTARY SCHOOL",37.731736,-122.393522
"298",35340,"Cornerstone Academy",37.724683,-122.41765
"299",5821,"MOSCONE ELEMENTARY SCHOOL",37.756231,-122.412293
"301",5889,"O'CONNELL HIGH SCHOOL",37.75962,-122.414674
"302",64805,"Andersen Bread",37.777053,-122.416939
"303",4656,"STARBUCKS COFFEE CO",37.784247,-122.403989
"304",5895,"Downtown High School",37.761354,-122.404146
"305",5634,"AT&T - COMMISARY KITCHEN [145184]",37.778382,-122.391151
"306",5619,"AT&T - PANTRY/WALK-IN BOX/suite [145163]",37.778382,-122.391151
"312",64380,"Michael Mina Restaurant",37.793338,-122.399583
"313",33700,"Casa Guadalupe #3",37.749194,-122.418116
"314",69282,"New Jumbo Seafood Restaurant",37.754132,-122.480058
"315",3253,"S F GOLF CLUB",37.711329,-122.471316
"316",5829,"LAFAYETTE ELEMENTARY SCHOOL",37.777603,-122.49649
"317",62064,"California Grocery",37.784303,-122.409647
"321",61856,"Yoppi Yogurt",37.793424,-122.398168
"328",67187,"Chipotle Mexican Grill #1560",37.807923,-122.417887
"330",5951,"ST. THOMAS MORE",37.712259,-122.47308
"332",69792,"Samiramis Imports",37.74923,-122.418224
"333",66536,"Cypress Grill",37.723698,-122.495289
"353",5877,"CLAIRE LILIENTHAL SCHOOL-MADISON CA",37.786808,-122.458014
"354",300,"SUBWAY",37.794134,-122.423234
"355",1339,"HIGHER GROUNDS",37.734483,-122.43368
"360",5033,"DESTINATION BAKING COMPANY",37.734619,-122.432379
"366",60544,"Manzoni",37.73473,-122.433823
"370",2315,"TAQUERIA CAN-CUN",37.760487,-122.419285
"371",5819,"MIRALOMA ELEMENTARY SCHOOL",37.739266,-122.450227
"372",5851,"ROOFTOP SCHOOL",37.754685,-122.443967
"374",5838,"HARVEY MILK ELEMENTARY SCHOOL",37.759173,-122.436488
"375",5843,"HOOVER MIDDLE SCHOOL",37.745374,-122.470308
"379",5818,"MISSION ED. CENTER ELEMENTARY",37.742294,-122.43104
"380",5839,"ALICE FONG YU ELEMENTARY SCHOOL",37.759386,-122.469292
"383",5837,"MCKINLEY ELEMENTARY SCHOOL",37.767231,-122.436377
"386",5952,"IMMACULATE CONCPTION ACADEMY",37.751923,-122.423558
"387",5950,"LICK-WILMERDING HIGH SCHOOL",37.722933,-122.448971
"389",5898,"MONROE ELEMENTARY SCHOOL",37.725199,-122.430106
"390",5852,"CARVER ELEMENTARY SCHOOL",37.732408,-122.386391
"395",4850,"COOL GUYS",37.721794,-122.461991
"397",5894,"SAN FRANCISCO COMMUNITY ELEM.SCHOOL",37.725657,-122.432348
"398",3394,"The Keystone",37.784915,-122.404832
"399",5855,"SOTA (SCHOOL OF THE ARTS)",37.745674,-122.45085
"404",3262,"VILLA D'ESTE",37.731781,-122.47359
"405",1567,"TANPOPO",37.785961,-122.429776
"406",13374,"Rooftop Middle School",37.757398,-122.4442
"407",1882,"Sorabol-Stonestown Galleria",37.728497,-122.475639
"408",2134,"CHIEFTAIN IRISH PUB, THE",37.781567,-122.405059
"409",5812,"Zaida T. Rodriguez (ZTR) Annex Child Development Center",37.750243,-122.419293
"411",5811,"MANN MIDDLE SCHOOL",37.753704,-122.420198
"412",1147,"UA Twin Stonestown",37.730105,-122.478441
"413",5844,"CLARENDON ELEMENTARY SCHOOL",37.751552,-122.456517
"424",1332,"CHLOE'S",37.748594,-122.427116
"428",5926,"SAN FRANCISCO SCHOOL, THE",37.732518,-122.411648
"431",65291,"CMPC - St. Lukes Cafeteria",37.748044,-122.42125
"432",5804,"JUNIPERO SERRA ELEMENTARY SCHOOL",37.736683,-122.421132
"433",61669,"Good Eats Cafe",37.792237,-122.400124
"434",3050,"Benkyodo Co",37.785994,-122.429925
"437",64379,"Piccadilly Fish & Chips",37.789299,-122.420352
"442",59331,"The Lunch Box",37.723638,-122.452273
"445",2808,"NEW EMMY'S RESTAURANT",37.725404,-122.462776
"447",6686,"Chevron #1539",37.763802,-122.477186
"451",6001,"PRESIDIO GATE APARTMENTS",37.798558,-122.446784
"452",69195,"Center Cafe",37.769751,-122.41832
"454",4952,"CHEVRON STATIONS INC. #1727",37.711558,-122.45561
"457",4475,"Spot Light Market",37.766424,-122.424311
"460",1005,"CHAVITA'S MEXICAN RESTAURANT",37.748855,-122.418134
"461",999,"SERRANO'S PIZZA II",37.756997,-122.420534
"462",4874,"JUMP START COFFEE & GROCERY",37.752118,-122.422914
"464",5813,"LICK MIDDLE SCHOOL",37.74949,-122.43175
"465",5893,"CLEVELAND ELEMENTARY SCHOOL",37.720765,-122.429004
"475",5815,"ALVARADO ELEMENTARY SCHOOL",37.753684,-122.438696
"477",7361,"PastaGina",37.751403,-122.436286
"484",5835,"Rosa Parks Elementary School",37.783604,-122.430141
"485",69368,"Onigilly",37.791149,-122.404171
"486",6025,"KIMOCHI INC",37.786428,-122.430883
"487",63651,"SFDH - Employee Cafeteria",37.788918,-122.408507
"488",1724,"CAFE MUMS",37.786498,-122.430283
"490",2755,"SOCIALE",37.787364,-122.45299
"494",7517,"Discount Grocers",37.787924,-122.420164
"495",2031,"KENMORE RESIDENCE CLUB",37.787017,-122.426234
"496",5866,"KING ELEMENTARY SCHOOL",37.753196,-122.39939
"497",63652,"SFDH - Banquet Main Kitchen",37.788918,-122.408507
"500",5913,"ST CHARLES SCHOOL",37.762074,-122.416107
"501",63646,"SFDH - Harry Denton's Starlight Room",37.788782,-122.408439
"504",68258,"A&M LIQUOR",37.786928,-122.426964
"509",2766,"TAQUERIA GUADALAJARA",37.721191,-122.43755
"516",3877,"BALBOA CAFE",37.798835,-122.435894
"518",2840,"THE OLYMPIC CLUB AT LAKESIDE",37.708887,-122.497934
"519",2841,"THE OLYMPIC CLUB AT LAKESIDE, UPPER",37.708887,-122.497934
"521",1426,"SWEET DELIGHT BAKERY",37.726117,-122.433817
"522",24198,"Olivo's Taqueria",37.787288,-122.418389
"527",2980,"PUERTO ALEGRE",37.764148,-122.421855
"543",4509,"AFC SUSHI @ SAFEWAY 1507",37.768743,-122.427549
"547",68944,"Peet's Coffee and Tea",37.720877,-122.477651
"548",5841,"JEFFERSON ELEMENTARY SCHOOL",37.763543,-122.476332
"550",37820,"Natural Sensations",37.720894,-122.478029
"551",4643,"CHEUNG HING CHINESE DELI & MEAT INC",37.782993,-122.462709
"553",187,"TAZA WRAPS & JUICE",37.723054,-122.483612
"555",38530,"Portico IV",37.789804,-122.40077
"557",2384,"TWO JACKS SEAFOOD",37.772274,-122.428997
"559",5118,"KFC",37.742948,-122.478732
"568",36208,"Silver Cafe",37.728582,-122.431482
"570",14005,"Yuyu Sushi",37.733901,-122.490726
"575",2725,"BOBOQUIVARI'S",37.801218,-122.425535
"576",4801,"YICK'S LIQUOR",37.72304,-122.436017
"578",2676,"FIREFLY",37.751068,-122.438242
"580",5959,"ST. JOHN'S SNACK BAR",37.735264,-122.437679
"584",628,"EL BURRITO EXPRESS #2",37.786407,-122.440057
"587",5912,"ARGONNE ALTERNATIVE ELEMENTARY SCHO",37.775155,-122.476785
"589",272,"ON THE BRIDGE",37.785227,-122.431472
"591",3690,"BENIHANA OF TOKYO",37.785457,-122.430317
"596",27306,"Guerrero Market",37.759824,-122.423577
"597",1243,"JAVA SUPREME",37.759934,-122.423553
"599",3615,"TARTINE BAKERY",37.761531,-122.423862
"600",4893,"S & W MARKET",37.772323,-122.428627
"603",70929,"Linda's Deli",37.742998,-122.477391
"607",3920,"BOSTON MARKET",37.765708,-122.409002
"611",4519,"HSS 121 CAFE",37.720851,-122.477084
"612",59002,"Yummy Bakery & Restaurant",37.796152,-122.405255
"614",305,"PACIFIC CATCH",37.800763,-122.436536
"616",62060,"Cozy Cable Car Cafe",37.789521,-122.408736
"618",1983,"Four Star Theatre - Snack Bar",37.782128,-122.482911
"619",4906,"NEW STAR MARKET",37.768274,-122.419299
"620",619,"A-1 BAKERY",37.724824,-122.460726
"625",61915,"La Loma Produce Nos. 3 & 9 Inc",37.710685,-122.447907
"627",65624,"Tacko Shop",37.798273,-122.435774
"629",2974,"LEAPING LEMUR CAFE",37.73017,-122.502535
"630",69172,"Victoria Pastry Co.",37.8012,-122.411191
"631",4630,"Zanze's Cheesecake",37.730139,-122.469855
"632",63619,"Subway Sandwiches",37.776133,-122.419484
"643",5552,"WILDLIFE CONNECTION ESPRESSO CART",37.73017,-122.502535
"646",7449,"CHEVRON #1760",37.775314,-122.412819
"647",69175,"Mau Restaurant",37.762381,-122.42156
"651",2454,"San Jalisco",37.758634,-122.416866
"652",64653,"Mow Lee Company",37.793907,-122.405863
"653",4864,"DRAGON CITY BAKERY & CAFE",37.759174,-122.419066
"655",2750,"HAMANO SUSHI",37.750778,-122.434065
"656",4922,"EL FARO",37.759054,-122.414656
"657",3616,"THE LIBERTIES IRISH BAR & REST.",37.75527,-122.423256
"664",1366,"CAFE LA TAZA",37.757436,-122.41888
"669",2689,"THE BLUE PLATE",37.745158,-122.420217
"676",2690,"LOS PANCHOS",37.745516,-122.420004
"679",19056,"Moscone Center West -  3 Flr. Pantry",37.783257,-122.402816
"680",19055,"Moscone Center West - Bsmt Kitchen",37.783257,-122.402816
"682",2777,"Starbucks Coffee",37.793632,-122.397023
"684",2542,"PETER D'S RESTAURANT",37.795993,-122.423585
"685",66895,"Izakaya Yuzuki",37.761603,-122.423869
"686",65057,"The Brixton",37.797238,-122.434533
"688",33728,"Split Pea Seduction",37.774722,-122.406761
"692",19057,"Moscone Center West -  2nd Flr. Pantry",37.783257,-122.402816
"697",4539,"PEET'S COFFEE & TEA",37.740283,-122.466459
"699",68467,"Yong Fong Co.",37.782939,-122.465631
"700",4667,"EMPIRE THEATRE",37.739883,-122.466749
"703",65060,"Atelier Crenn",37.798403,-122.435804
"708",2347,"LAS TINAJAS",37.759567,-122.419185
"709",1018,"PETES BARBEQUE",37.758684,-122.418975
"718",19058,"Moscone Center West - 1st Flr. Pantry",37.783257,-122.402816
"725",21982,"Chico's Grill",37.736438,-122.424269
"728",281,"PARMA RESTAURANT",37.799807,-122.437649
"730",59838,"OTD",37.786988,-122.434074
"731",2497,"PLUTO'S",37.799796,-122.441041
"734",66411,"Del Popolo LLC",37.752274,-122.426336
"736",1764,"FLORIO",37.787553,-122.433574
"738",544,"THAI TIME RESTAURANT",37.782534,-122.466615
"742",4434,"NOE VALLEY BAKERY & BREAD CO.",37.751314,-122.433409
"744",7747,"SAFEWAY STORE #964",37.71954,-122.438775
"745",7575,"SUPER MIRA",37.786568,-122.429754
"747",7764,"YASUKOCHI'S SWEET SHOP",37.78659,-122.429815
"755",26341,"Natural Market, Inc.",37.788113,-122.432147
"756",741,"MOZZARELLA DI BUFALA PIZZERIA II",37.740052,-122.466544
"757",2749,"TAQUERIA CANCUN",37.745433,-122.419945
"758",3870,"LA ALTENA",37.743206,-122.421546
"759",70838,"Trattoria Da Vittorio",37.739223,-122.46766
"761",379,"GIANT SCOOP",37.727468,-122.403582
"762",61953,"Allstars Donuts & Burgers",37.781697,-122.415334
"765",35199,"Pho #1",37.729254,-122.40426
"783",587,"NEW TSING TAO RESTAURANT",37.740654,-122.465389
"784",70434,"Burrito Loco",37.740944,-122.46573
"786",4947,"AVENUE FINE FOODS",37.794494,-122.425527
"789",2599,"HONG KONG RESTAURANT",37.727159,-122.403452
"792",3752,"Pauline's Pizza",37.768677,-122.422275
"797",3885,"IZZY'S STEAK & CHOP HOUSE",37.800384,-122.437864
"799",290,"BISTRO AIX",37.800187,-122.437756
"801",3929,"OPERA HOUSE - BASEMENT,LOWER LOUNGE",37.778272,-122.420031
"804",3631,"NOC NOC",37.771964,-122.431336
"807",10668,"A16",37.800043,-122.442097
"809",1989,"PRESIDIO GOLF CLUB",37.788807,-122.460845
"810",69217,"Orexi Inc.",37.738434,-122.468438
"811",1950,"BULLSHEAD RESTAURANT",37.740785,-122.465507
"812",64351,"Fatted Calf SF",37.775918,-122.423134
"814",36160,"Zabb",37.726489,-122.433485
"821",29948,"Cafe Venue",37.783074,-122.406922
"823",1664,"PANDA EXPRESS",37.784317,-122.407563
"827",4558,"KING'S BAKERY",37.751356,-122.418414
"828",28044,"Century Theatres",37.784848,-122.406892
"829",1139,"MINI CAFE",37.775867,-122.419356
"830",3038,"TURK & LARKIN DELI",37.782458,-122.416873
"833",61959,"Expressions Snack Bar",37.808494,-122.412
"844",25167,"Glaze Donuts",37.726402,-122.433476
"845",253,"Ann's Donut Coffee Shop",37.725949,-122.433906
"846",1111,"SUBWAY 16604",37.783713,-122.419357
"848",65051,"Mission Cheese",37.761147,-122.421534
"852",62445,"Bistro 10 UN",37.780435,-122.413496
"856",744,"Cafe Bellini",37.784317,-122.407563
"859",39113,"Green Papaya Restaurant",37.783827,-122.405051
"862",4700,"STEWART'S MARKET",37.785093,-122.441498
"864",4787,"TONY BALONEY'S",37.778033,-122.40943
"872",19416,"Starbucks",37.784317,-122.407563
"873",557,"KATIA'S",37.77721,-122.462874
"875",62179,"Pampanguena Cuisine",37.727111,-122.432926
"876",64524,"Fresca Restaurant",37.764033,-122.4659
"882",1619,"BENDERS BAR & GRILL",37.76031,-122.417123
"886",32671,"La Taqueria Guadalajara",37.752512,-122.415109
"887",3895,"Cable Car Restaurant",37.803984,-122.415453
"889",63413,"Mymy",37.790798,-122.419214
"890",69769,"Whole Foods Market",37.723652,-122.45461
"891",403,"HAAGEN-DAZS #561",37.784317,-122.407563
"892",7087,"VALENCIA FARMER'S MARKET",37.752162,-122.420585
"894",4789,"WHITCOMB  HOTEL- EMPLOYEES / BSMT CAFETERIA",37.778357,-122.415182
"895",3630,"MAD DOG IN THE FOG",37.772097,-122.430814
"896",903,"Sabra Restaurant",37.790874,-122.405634
"898",3095,"Whitcomb Hotel Bar & Grill",37.778357,-122.415182
"901",6030,"Woolf House Senior Center",37.783037,-122.402952
"903",26149,"Mrs. Fields Cookies",37.784317,-122.407563
"936",63406,"Baker Street Bistro",37.798172,-122.445962
"937",37792,"Auntie Anne's Pretzels",37.784848,-122.406892
"938",2893,"FOREIGN CINEMA",37.756417,-122.418884
"947",1003,"RINCON PERUANO RESTAURANT",37.749128,-122.417402
"949",68909,"Cafe La Flore",37.763798,-122.472422
"953",27799,"Buckhorn Grill",37.784848,-122.406892
"954",3611,"ABSINTHE BRASSERIE & BAR",37.77694,-122.422962
"955",39862,"Trader Joe's #236",37.726891,-122.475673
"956",522,"Boudin Sourdough Bakery",37.728497,-122.475639
"957",4492,"Mollie Stone's Grand Central Market (Mezzanine Level)",37.788773,-122.434697
"965",3263,"Croatian Cultural Center",37.721776,-122.43894
"967",3046,"Mollie Stone's Grand Central Market",37.788773,-122.434697
"972",3869,"SAFEWAY #739",37.742998,-122.421638
"973",3862,"IMPERIAL GARDEN SEAFOOD RESTAURANT",37.728458,-122.403991
"983",3727,"ACE WASABI'S ROCK N ROLL SUSHI",37.800215,-122.437834
"984",856,"DELFINA RESTAURANT",37.761514,-122.424318
"987",10615,"Rulli Risto-Bar",37.800188,-122.441454
"991",65086,"Bun Mee",37.788193,-122.433714
"995",615,"J & A RESTAURANT",37.709857,-122.449709
"996",4957,"Safeway Stores Inc #711",37.805073,-122.433106
"1005",2008,"Hook a Cook",37.786766,-122.461545
"1006",1047,"PORK STORE CAFE",37.770063,-122.446247
"1010",7105,"CENTRAL HAIGHT MARKET",37.77036,-122.4437
"1015",59044,"Taqueria Cazadores",37.749851,-122.415121
"1017",63503,"Mason Street Deli and Market",37.784094,-122.409274
"1020",59872,"KAMEKYO",37.765164,-122.449874
"1021",34708,"Piqueos LLC",37.738893,-122.414078
"1023",62051,"Parada 22",37.769303,-122.451961
"1026",7576,"CHEVRON STATIONS INC. #1522",37.789645,-122.422314
"1031",1595,"Zazie",37.765343,-122.449914
"1036",5096,"POPEYES-GENEVA & MISSION",37.716643,-122.441187
"1037",1362,"RESTAURANTE FAMILIAR",37.726402,-122.433476
"1042",8750,"Kokoro Assisted Living",37.787639,-122.428182
"1043",3252,"LITTLE JOES PIZZA REST.",37.718359,-122.439655
"1044",70685,"5 Degree Tea House",37.729753,-122.40447
"1046",7678,"Casa Thai Market",37.765049,-122.420122
"1047",2374,"BEAN BAG COFFEE HOUSE",37.775184,-122.437864
"1048",1994,"EL POLLO SUPREMO",37.715469,-122.441846
"1049",1026,"PHUKET THAI RESTAURANT",37.771117,-122.436976
"1051",6912,"STORE ON THE CORNER, THE",37.787113,-122.400052
"1055",61816,"Bullitt",37.797114,-122.422034
"1059",6564,"HWA LEI MARKET",37.774722,-122.406761
"1061",56,"CAFE X + O",37.742325,-122.426476
"1062",4859,"7-ELEVEN STORE 2230-23342E",37.709683,-122.457571
"1063",3665,"Tower Carwash",37.772025,-122.419112
"1064",562,"DESTINO RESTAURANT",37.771437,-122.423892
"1069",151,"BUS STOP PIZZA #1",37.771487,-122.437047
"1071",7765,"HILDA'S MART & BAKE SHOP",37.722477,-122.434488
"1077",28206,"Westfield Food Court Scullery",37.784679,-122.407061
"1078",1008,"VALENCIA PIZZA & PASTA",37.759944,-122.421356
"1084",60616,"Sheffield Convalescent Hospital",37.755044,-122.416506
"1086",69753,"Sift Cupcake & Dessert Bar",37.788834,-122.43402
"1087",1042,"LOVE 'N HAIGHT COFFEE & DELI",37.771964,-122.431336
"1089",5053,"JAVA TRADING CO",37.782659,-122.406555
"1093",3838,"CAFE PICARO",37.764908,-122.422442
"1096",3267,"The Olive Garden Italian",37.728497,-122.475639
"1110",63121,"Sodini's Restaurant",37.799697,-122.407614
"1114",2553,"Its Tops Coffee Shop",37.771497,-122.423802
"1116",2385,"CAFE INTERNATIONAL",37.772097,-122.430814
"1120",845,"Cafe Jacqueline",37.800428,-122.407517
"1137",69576,"Roam Artisan Burgers",37.787538,-122.433611
"1160",7689,"UNOCAL 76  PACIFIC ENTERPRISES",37.723133,-122.452707
"1164",3839,"EL TORO TAQUERIA",37.763458,-122.421784
"1168",7527,"DON CHUYS MEXI-MERCADO",37.724122,-122.429309
"1173",2317,"BURGER JOINT",37.759933,-122.421356
"1175",4481,"Bi Rite Market",37.761483,-122.424688
"1176",69475,"La Corneta, Inc",37.734012,-122.434072
"1179",3623,"CHAVA'S",37.751554,-122.418376
"1180",21583,"Cafe Royale",37.787448,-122.415243
"1181",4824,"THE GAP CAFE",37.789177,-122.388962
"1182",4620,"WELCOME SUPER MARKET",37.776057,-122.408682
"1184",2447,"NEW CASTILLITO INC.",37.76356,-122.419582
"1187",4774,"BAYSIDE MARKET",37.78416,-122.389239
"1192",4438,"DIANA MARKET #2",37.774722,-122.406761
"1193",68773,"Nopalito",37.765412,-122.466375
"1195",3982,"SLIM'S",37.771501,-122.413439
"1197",1021,"LA SANTANECA DE LA MISSION",37.751885,-122.418406
"1201",68716,"The Sweet House",37.775818,-122.496401
"1209",35591,"The Monk's Kettle",37.764814,-122.422979
"1212",1949,"PLUTO'S",37.764083,-122.46471
"1213",6037,"CASTRO SENIOR CENTER",37.760317,-122.437185
"1215",4987,"ROSSI'S DELI",37.761954,-122.435168
"1217",1341,"SPIKE'S COFFEES & TEAS",37.759253,-122.43503
"1221",19170,"Vino Rosso",37.739041,-122.415636
"1222",2758,"OSTERIA",37.788183,-122.446757
"1228",2649,"WAN KEE RESTAURANT",37.762527,-122.419475
"1229",5850,"Zaida T. Rodriguez (ZTR) Child Development Center",37.749837,-122.418255
"1231",2360,"LA TAQUERIA",37.750855,-122.418286
"1237",3102,"TOWN'S END RESTAURANT & BAKERY",37.781865,-122.388433
"1238",3302,"RUSSIAN CENTER SOCIAL HALL",37.785138,-122.440904
"1241",2421,"ST FRANCIS FOUNTAIN",37.752833,-122.408349
"1243",3065,"CHA-AM RESTAURANT",37.783738,-122.398918
"1263",2409,"Mission Hunan Restaurant",37.765142,-122.419026
"1280",32586,"Terroir",37.776494,-122.408562
"1282",4917,"LA VICTORIA BAKERY",37.752373,-122.410876
"1295",3621,"JIM'S RESTAURANT",37.758271,-122.419081
"1298",63047,"Roam Artisan Burgers",37.797954,-122.428477
"1304",3317,"Pane e Vino Trattoria",37.798063,-122.427637
"1307",1154,"SUNFLOWER RESTAURANT",37.764678,-122.421905
"1309",2483,"CAFE UNION",37.797878,-122.429504
"1311",1778,"Academy Bar & Kitchen",37.786498,-122.430283
"1314",3343,"PERRYS",37.797648,-122.431274
"1318",59574,"Pan Lido Salvadoreno",37.755479,-122.417583
"1320",6032,"FRANCIS OF ASSISI SENIOR MEALS PROG",37.768904,-122.424466
"1325",71287,"Glaze Teriyaki",37.787778,-122.433557
"1326",62775,"Lombard Shell",37.800468,-122.431434
"1327",3280,"HARRY'S BAR",37.788307,-122.433667
"1338",4474,"17th & Noe Market",37.762638,-122.433242
"1346",63971,"Munchboxx",37.794554,-122.403827
"1352",4702,"SHUFAT MARKET",37.751664,-122.427688
"1353",4716,"MICHAELIS WINE & SPIRITS",37.797138,-122.435334
"1356",3626,"Beretta",37.753823,-122.420786
"1365",5870,"CARMICHAEL ELEMENTARY SCHOOL",37.776948,-122.406342
"1367",5891,"FILIPINO ED. CTR ELEMENTARY SCHOOL",37.780295,-122.400308
"1382",320,"NAPOLI PIZZA RESTAURANT",37.786545,-122.419894
"1391",65824,"Sugarhill Kitchen",37.801173,-122.425467
"1398",63893,"Marina Sushi Bar",37.800028,-122.434864
"1404",2739,"ROSE'S CAFE",37.796927,-122.436974
"1409",63918,"Cotogna",37.797378,-122.403344
"1411",1296,"TAQUERIA EL BUEN SABOR",37.761743,-122.421492
"1412",7216,"El Chico Produce Market #2",37.724489,-122.435026
"1413",1300,"WE BE SUSHI",37.755824,-122.420986
"1415",7643,"PACIFIC SUPER MARKET",37.712148,-122.452076
"1422",1354,"SUSHI TIME",37.764697,-122.432322
"1440",3055,"SAFEWAY STORES, INC. #995",37.783253,-122.431034
"1447",7211,"RELIANCE MARKET",37.757743,-122.434626
"1449",64154,"Yummy Dim Sum & Fast Food, LLC",37.794457,-122.407896
"1457",2357,"CHINA EXPRESS",37.752408,-122.418535
"1472",18826,"Fresca Restaurant",37.789074,-122.433783
"1476",2724,"HUNAN EMPIRE",37.797443,-122.432537
"1481",63124,"Marengo on Union",37.797578,-122.431883
"1485",59009,"Woodhouse Fish Co.",37.787386,-122.433476
"1486",2555,"EXTREME PIZZA",37.797578,-122.431883
"1492",1626,"LUPA TRATTORIA",37.751243,-122.434529
"1493",184,"RADIO HABANA",37.755124,-122.420916
"1510",3165,"HAN IL KWAN",37.776599,-122.478292
"1520",5605,"CALIF PACIFIC MEDICAL CTR - CART",37.791426,-122.431039
"1522",15279,"Deli World",37.724174,-122.435859
"1528",3661,"LA CUMBRE",37.764553,-122.421826
"1551",5006,"LA MEJOR BAKERY",37.752156,-122.41916
"1552",9155,"STARBUCKS",37.765427,-122.402645
"1553",6904,"BUCHANAN FOOD MART",37.789844,-122.430684
"1561",68259,"Balboa Theater",37.775752,-122.497655
"1568",71380,"Curry Up Now",37.762265,-122.421586
"1569",33851,"Thee Parkside",37.764987,-122.399872
"1575",7786,"DIANDA'S ITAL-AMER.PASTRY CO.",37.750959,-122.418264
"1583",7636,"LEE'S FOOD MARKET",37.729455,-122.386364
"1588",5156,"McDONALD'S",37.765507,-122.407565
"1592",2743,"NOAH'S NEW YORK BAGELS #2147",37.765708,-122.409002
"1593",5830,"Theodore Roosevelt Middle School",37.782383,-122.458926
"1594",4478,"AFC Sushi @ Safeway #1490",37.765708,-122.409002
"1608",2017,"THE GROVE FILLMORE",37.788147,-122.433637
"1619",5848,"Ida B Wells Continuation High School",37.775443,-122.433977
"1621",62552,"Hotel Nikko SF - Banquet Prep/Service Room",37.785648,-122.409497
"1627",62551,"Hotel Nikko-San Francisco - Harmony Room",37.785648,-122.409497
"1637",71373,"Golden River Restaurant",37.780144,-122.48204
"1638",2797,"MELS DRIVE-IN",37.785358,-122.421357
"1651",63404,"Commonwealth",37.761337,-122.419355
"1658",1219,"PAZZO",37.769287,-122.403974
"1659",2684,"ERIC'S RESTAURANT",37.746759,-122.426995
"1667",2664,"Alice's Restaurant",37.743602,-122.428803
"1674",67584,"Stow Lake Boathouse Company",37.721453,-122.48629
"1675",3309,"ALBORZ",37.787375,-122.421844
"1676",5974,"RICHMOND SENIOR CENTER - 3RD FLOOR",37.779943,-122.486199
"1679",2032,"QUEEN ANNE HOTEL",37.786988,-122.426464
"1697",3645,"ZUNI CAFE",37.773415,-122.421598
"1702",943,"EL CASTILLITO TAQUERIA INC.",37.768776,-122.429095
"1703",3769,"BURGER KING",37.785094,-122.407785
"1704",62000,"Cafe Encore",37.788128,-122.409705
"1705",68504,"The Fitzgerald Hotel",37.787848,-122.412123
"1716",65724,"Le Meridien SF Main Kitchen/Employee Cafeteria",37.799005,-122.399862
"1717",37651,"Jack In The Box #545",37.787168,-122.410124
"1718",65725,"Le Meridien SF Park Grill Restaurant & Bar",37.799005,-122.399862
"1720",323,"WAYO",37.788609,-122.42213
"1723",19041,"Nama Sushi",37.777398,-122.392391
"1734",1700,"Raintree Cafe",37.739413,-122.46744
"1737",69387,"Chabaa Thai Cuisine",37.787178,-122.410237
"1743",1352,"LA TORTILLA",37.760954,-122.434935
"1744",2638,"SF BAGEL CO. (KATZ BAGELS)",37.764814,-122.423089
"1781",4804,"SUBWAY #31419",37.728933,-122.40413
"1784",774,"BAY VIEW BOAT CLUB",37.772667,-122.387032
"1786",33160,"Mission Bay Cafe",37.770518,-122.386525
"1796",773,"MARIPOSA HUNTERS POINT YACHT CLUB",37.77325,-122.387222
"1827",71476,"Chou Chou Bakery Bistro",37.747174,-122.459368
"1829",5257,"LITTLE BAOBAB",37.760295,-122.418953
"1830",3850,"Thai House Express On Castro",37.759404,-122.434836
"1831",62550,"ANZU Restaurant",37.785648,-122.409497
"1846",69761,"Missionaries of Charity",37.712268,-122.455421
"1849",62701,"Wayfare Tavern",37.793907,-122.402304
"1870",11610,"On Lok",37.742129,-122.425006
"1871",5992,"RUSSIAN AMERICAN COMMUNITY SVC",37.780768,-122.449974
"1877",2759,"CASA MEXICANA",37.768127,-122.429024
"1903",4907,"JIM GEORGIE'S DONUT",37.765262,-122.41523
"1906",4479,"Courtney's Produce II",37.767194,-122.435576
"1907",4794,"VICTOR'S",37.778634,-122.393089
"1929",1294,"ANCHOR OYSTER BAR INC.",37.759613,-122.434817
"1933",2538,"KATES KITCHEN",37.772163,-122.429927
"1934",37090,"Basil Canteen",37.772008,-122.413803
"1937",2359,"LA TRAVIATA",37.751296,-122.418414
"1940",2002,"PANDA EXPRESS",37.728497,-122.475639
"1941",36911,"Royal Market & Bakery",37.780383,-122.47673
"1944",63493,"The Golden West",37.790053,-122.402586
"1946",3221,"PASQUALES",37.764108,-122.465512
"1949",3070,"FLOWER MARKET CAFE",37.775664,-122.399999
"1953",63150,"Local Diner",37.778343,-122.415348
"1957",64940,"The Grove-Hayes",37.777026,-122.421361
"1961",63992,"Thai Cottage Restaurant",37.760413,-122.50555
"1971",3825,"COVE CAFE",37.761918,-122.435135
"1975",276,"CORSAGNA",37.79826,-122.426748
"1978",69110,"Chez Maman",37.776889,-122.423039
"1983",155,"CAFE COLE",37.769303,-122.450724
"1984",5227,"Larkin Street Youth Center",37.783845,-122.420429
"1986",3784,"BLOWFISH SUSHI",37.759488,-122.409931
"1988",1337,"Sabor De San Miguel",37.744726,-122.420395
"1992",1992,"GENEVA STEAK HOUSE",37.716242,-122.441183
"1996",63082,"The Brick Yard",37.797933,-122.428627
"2004",19373,"Las Isletas",37.737021,-122.390043
"2006",70058,"Juice Shop",37.739526,-122.404457
"2008",7489,"GAS & SHOP",37.763803,-122.417326
"2011",61989,"Osha Thai Restaurant & Lounge",37.783662,-122.398704
"2016",5071,"CAFE-ROSSO",37.720851,-122.477084
"2021",2326,"IRMA'S PAMPANGA RESTAURANT",37.765123,-122.417919
"2023",2266,"ALI BABA'S CAVE RESTAURANT",37.760164,-122.421334
"2024",7748,"FOODS CO. #351",37.730164,-122.399114
"2026",2397,"PLOY #2 THAI CUISINE",37.769458,-122.451354
"2031",36589,"Catering With Style",37.749603,-122.408928
"2044",4860,"Play  Field Cafe",37.73017,-122.502535
"2048",3607,"Station Cafe",37.73017,-122.502535
"2070",2358,"TAQUERIA SAN JOSE #1",37.751687,-122.418455
"2102",1274,"MORNING DUE",37.762939,-122.428473
"2108",5180,"ST. PAULS SCHOOL",37.74385,-122.426739
"2109",35882,"Peet's Coffee and Tea",37.774722,-122.406761
"2110",5000,"PEET'S COFFEE & TEA",37.764947,-122.432012
"2115",67330,"San Tung Restaurant LLC",37.763891,-122.468805
"2118",1159,"Zona Rosa",37.769363,-122.451667
"2119",64354,"San Francisco Poultry, Inc.",37.796583,-122.408413
"2124",62069,"Golden Eagle Deli & Grill",37.737719,-122.389559
"2126",54,"RHODA GOLDMAN PLAZA",37.784626,-122.437734
"2128",63077,"Aroma Tea Shop",37.795033,-122.407368
"2131",33467,"California Pizza Kitchen, Inc.",37.78678,-122.402535
"2132",64938,"Xpress Market",37.785861,-122.412954
"2151",2842,"SEASONS RESTAURANT",37.786476,-122.404852
"2163",5219,"SALVATION ARMY GATEWAY",37.772473,-122.409879
"2172",4512,"BRANNAN STREET CAFE",37.782334,-122.391479
"2185",7755,"ARIZMENDI BAKERY",37.763448,-122.466344
"2189",902,"MARCELLO'S PIZZA",37.762057,-122.435145
"2198",18462,"Jack's Market",37.781607,-122.396125
"2207",69383,"La Mediterranee",37.799639,-122.410657
"2208",4108,"Hornblower Cruises & Events/SF Belle",37.797473,-122.39592
"2215",68257,"AFC SUSHI at Mollie Stone's #10",37.744876,-122.452425
"2216",6003,"JOSEPH LEE RECREATION CENTER",37.735232,-122.389694
"2223",63049,"Noodle City",37.795534,-122.409893
"2235",1542,"I LUV TERIYAKI AND SUSHI",37.766293,-122.407671
"2248",1191,"TEKKA JAPANESE RESTAURANT",37.77714,-122.464412
"2267",6007,"BAYVIEE HUNTER Pt. ADULT DAY HE",37.73241,-122.383559
"2270",61976,"DELICA",37.795225,-122.39377
"2279",3345,"BAR NONE-SF, LLC",37.797578,-122.431883
"2284",3477,"CHOW",37.767183,-122.428866
"2289",7491,"AUTO CITY Food Mart",37.764773,-122.417416
"2292",70452,"Kennedy Market & Deli",37.736301,-122.390293
"2296",7757,"CAKE GALLERY",37.768357,-122.419792
"2302",5019,"PEET'S COFFEE & TEA",37.765708,-122.409002
"2314",6348,"Castro Street Chevron",37.762857,-122.434755
"2333",4884,"LUCCA RAVIOLI CO",37.755177,-122.420995
"2336",64660,"Haight Street Market",37.769957,-122.447533
"2348",5170,"BAYVIEW HP MULTI-SERVICE DROP-IN CT",37.726932,-122.388696
"2352",33865,"Nabe",37.758941,-122.48591
"2360",5194,"CULINARY ARTS & HOSPITALITY",37.723638,-122.452273
"2373",1673,"RUBIN'S",37.792577,-122.393992
"2377",6015,"Telegraph Hill Senior Meals Program",37.802918,-122.412494
"2388",62702,"Comstock Saloon",37.79668,-122.40498
"2404",5307,"San Francisco ZOO WAREHOUSE",37.73017,-122.502535
"2414",5212,"MARTIN DE PORRES HOUSE OF HOSP",37.766759,-122.407571
"2431",1075,"SANDWICH PLACE, THE",37.764384,-122.419566
"2449",5213,"MEALS ON WHEELS OF SF, INC.",37.739891,-122.3848
"2456",1486,"STARBUCKS COFFEE",37.744736,-122.452666
"2522",2737,"CAFFE' ROMA",37.774677,-122.404222
"2538",645,"TAN-TAN",37.785274,-122.431918
"2540",1788,"EXECUTIVE CAFE",37.711323,-122.393371
"2550",1527,"CITY'S CHOICE",37.780263,-122.403323
"2560",1265,"STARBUCKS COFFEE CO.",37.764088,-122.465981
"2583",6021,"POTRERO HILL NEIGHBORHOOD House",37.758134,-122.400926
"2596",3699,"MATTERHORN RESTAURANT",37.797184,-122.423824
"2610",782,"MONTE CRISTO SOCIAL CLUB",37.764627,-122.396764
"2618",4400,"BOTTOM OF THE HILL",37.765117,-122.396135
"2632",3678,"ROUND TABLE PIZZA",37.744168,-122.453479
"2639",1668,"SILVER CREST DONUT SHOP",37.742456,-122.405766
"2693",6019,"KIMOCHI HOME",37.786944,-122.426377
"2706",34749,"Chatz Coffee",37.786529,-122.397827
"2714",4828,"SAY CHEESE",37.766017,-122.449976
"2735",5533,"LEAPING LEMUR CART",37.721453,-122.48629
"2752",2061,"ATAMI SUSHI BAR & GRILL",37.800788,-122.428894
"2814",5271,"McCALL ASSOCIATES",37.764359,-122.410594
"2885",27801,"Hive Coffee Bar",37.787764,-122.397089
"2920",64496,"Hornblower Cruises & Events/SF Spirit",37.794551,-122.39319
"2971",5185,"260 Golden Gate Family Residence",37.781792,-122.414891
"3021",1529,"STARBUCKS",37.778694,-122.396139
"3028",194,"BAYSIDE COFFEE SHOP",37.715126,-122.398901
"3042",2132,"B & M MEI SING RESTAURANT",37.788453,-122.400466
"3048",5786,"UNION STREET INN",37.796977,-122.435968
"3068",3256,"Connection, The",37.709737,-122.45007
"3109",994,"RAILROAD EXPRESSO CAFE",37.731513,-122.45133
"3204",5179,"Tenderloin Children's Playground",37.784564,-122.415617
"3227",5214,"San Francisco Christian Academy",37.783988,-122.412681
"3248",4335,"ASIA SF LLC",37.775025,-122.413093
"3249",3819,"SAFEWAY #667",37.744076,-122.438684
"3250",62308,"Sam's Diner",37.778497,-122.415146
"3256",64636,"Chinatown YMCA (Kitchen)",37.793234,-122.406932
"3259",65007,"Pause",37.773344,-122.421638
"3261",6748,"West Portal Nutrition Center",37.739147,-122.467661
"3280",64484,"Twirl and Dip",37.777122,-122.419639
"3293",1963,"Spiazzo",37.740456,-122.466108
"3301",7405,"TRADER JOE'S",37.783444,-122.447294
"3317",5200,"LATINO CUISINE CULINARY ACADEMY",37.760373,-122.411153
"3349",2020,"MONROE RESIDENCE CLUB",37.791178,-122.423703
"3381",5210,"FIRST BAPTIST CHURCH",37.772017,-122.4241
"3389",7210,"NOE VALLEY MARKET",37.765728,-122.433275
"3395",2648,"BALOMPIE CAFE",37.761836,-122.418296
"3425",3331,"HARVEY'S",37.760698,-122.435015
"3482",9710,"RICKSHAW STOP",37.776223,-122.420497
"3483",1596,"BURGERMEISTER",37.765848,-122.449664
"3486",1347,"CREPES ON COLE",37.765778,-122.450184
"3492",1261,"REVERIE COFFEE CAFE",37.766097,-122.449997
"3499",2731,"Main Kitchen-Mission Grille",37.784964,-122.404752
"3507",4841,"STARBUCKS COFFEE #9215",37.764027,-122.456159
"3509",1263,"LAVA JAVA",37.766812,-122.452974
"3515",69259,"Goat Hill Pizza",37.739154,-122.467794
"3523",62578,"New Chef Hung's Restaurant",37.794193,-122.406677
"3532",3649,"SAFEWAY #1490",37.765708,-122.409002
"3582",1635,"KEZAR PUB",37.767828,-122.453227
"3585",1262,"NORTH BEACH PIZZA",37.767286,-122.453075
"3589",2620,"Bambino's Ristorante",37.765174,-122.449884
"3622",642,"ANDERSEN BAKERY",37.785457,-122.430317
"3693",2971,"ST MARY'S HOSPITAL CAFETERIA",37.773657,-122.454417
"3724",19357,"Original Buffalo Wings",37.799095,-122.442457
"3761",5226,"Project Open Hand",37.783583,-122.419191
"3770",591,"YOU SEE SUSHI",37.762378,-122.462692
"3785",5192,"COMING HOME HOSPICE",37.760485,-122.437091
"3795",2619,"KEZAR BAR & RESTAURANT",37.765538,-122.449887
"3845",62277,"Tacos San Buena",37.779847,-122.418985
"3889",929,"Cafe Ethiopia",37.758832,-122.421359
"3900",70210,"Marcus Rios",37.76824,-122.420035
"3913",5805,"ORTEGA ELEMENTARY SCHOOL",37.716156,-122.466248
"3914",18686,"Serve Well Market Inc",37.784411,-122.415954
"3919",62067,"Caffe La Stazione",37.757364,-122.393066
"3939",3867,"Bacco",37.751403,-122.436286
"3986",5607,"SFSU STATION CAFE",37.720851,-122.477084
"4105",68560,"Wow Naan-N-Curry",37.764128,-122.464961
"4113",5208,"GOLDEN GATE YACHT CLUB",37.807878,-122.442499
"4186",5301,"Tacos San Buena",37.749851,-122.415121
"4215",10875,"Brendas Meat & Three",37.778194,-122.438474
"4233",2136,"STARBUCKS COFFEE CO.",37.739514,-122.46733
"4245",5993,"JACKIE CHAN SENIOR CENTER",37.780174,-122.481229
"4324",69653,"Izakaya Roku",37.7714,-122.423887
"4334",3846,"WARAKABUNE RESTAURANT",37.765933,-122.428746
"4359",4559,"PACIFIC FOOD MART",37.785623,-122.436498
"4364",2426,"BOOGALOOS",37.755357,-122.420652
"4368",3715,"WE BE SUSHI",37.764272,-122.421898
"4421",18102,"Kim Son Restaurant",37.775728,-122.497701
"4434",59691,"Bouche",37.790323,-122.407348
"4470",5150,"Kentucky Fried Chicken",37.769758,-122.424782
"4473",3393,"DON RAMON",37.772764,-122.415082
"4624",4531,"AK SUBS",37.773884,-122.408631
"4687",7111,"OAK FAIR MARKET",37.773285,-122.435709
"4720",3899,"FIREWOOD CAFE",37.760788,-122.436913
"4726",36840,"Four Barrel Coffee",37.766994,-122.422035
"4752",71328,"Fable",37.759928,-122.434945
"4804",5196,"San Francisco Campus for Jewish Living",37.728659,-122.431174
"4828",1699,"TWILIGHT CAFE",37.775698,-122.455034
"4915",5175,"NEIGHBORHOOD BAPTIST CHURCH",37.776504,-122.426446
"4950",5168,"CONGREGATION SHERITH ISRAEL",37.789225,-122.431643
"4984",2627,"BURGERMEISTER",37.768776,-122.429095
"5014",5171,"CHRIST UNITED PRESBYTERIAN CHU",37.786771,-122.42839
"5061",1926,"LINCOLN PARK BAR AND GRILL",37.782971,-122.496324
"5064",71168,"Mangrove Kitchen",37.772458,-122.437247
"5108",61500,"Happy Lounge",37.781143,-122.459709
"5136",1636,"AXUM",37.771738,-122.433583
"5177",3951,"KIRIN RESTAURANT",37.779962,-122.485087
"5181",2305,"TIA MARGARITA INC",37.782124,-122.478425
"5211",71356,"Padrecito",37.765644,-122.449974
"5321",66972,"Akiba",37.781585,-122.492793
"5351",2325,"THE CITRUS CLUB",37.769428,-122.451604
"5353",5942,"EPIPHANY ELEMENTARY",37.715985,-122.434402
"5355",64007,"Oakes Children's Center",37.745947,-122.412515
"5424",7488,"EUROPA EXPRESS",37.774248,-122.510043
"5425",7493,"MR. PICKLE'S SANDWICH SHOP",37.758817,-122.416522
"5485",4692,"FRIENDS LIQUOR",37.785717,-122.433121
"5493",71657,"Bussaba",37.764188,-122.463683
"5499",251,"THE BEANERY INC.",37.764148,-122.464391
"5519",5948,"THE BRANDEIS SCHOOL OF SAN FRANCISCO",37.713935,-122.475282
"5528",1931,"YUMMY YUMMY VIETNAMESE RESTAURANT",37.763913,-122.468809
"5591",2085,"KENTUCKY FRIED CHICKEN #249",37.783053,-122.418988
"5727",3651,"PANCHO VILLA",37.764897,-122.421234
"5761",68442,"Sauce Belden",37.791458,-122.403787
